[
  {"slug":"ainu","name":"Ainu","region":"Japan (Hokkaidō)","speakers":10,"status":"Critically Endangered","coordinates":[43.0642,141.3469]},
  {"slug":"livonian","name":"Livonian","region":"Latvia","speakers":30,"status":"Critically Endangered","coordinates":[57.074,22.004]},
  {"slug":"cornish","name":"Cornish","region":"United Kingdom (Cornwall)","speakers":600,"status":"Revived","coordinates":[50.4,-5.0]},
  {"slug":"manx","name":"Manx","region":"Isle of Man","speakers":2000,"status":"Revived","coordinates":[54.2,-4.5]},
  {"slug":"breton","name":"Breton","region":"France (Brittany)","speakers":200000,"status":"Severely Endangered","coordinates":[48.2,-3.0]},
  {"slug":"northern_sami","name":"Northern Sámi","region":"Norway, Sweden, Finland","speakers":25000,"status":"Vulnerable","coordinates":[68.0,23.0]},
  {"slug":"ladino","name":"Ladino (Judeo-Spanish)","region":"Turkey, Israel, Balkans","speakers":60000,"status":"Endangered","coordinates":[41.0,29.0]},
  {"slug":"romani","name":"Romani","region":"Europe","speakers":3500000,"status":"Vulnerable","coordinates":[45.0,15.0]},
  {"slug":"nahuatl","name":"Nahuatl","region":"Mexico","speakers":1500000,"status":"Vulnerable","coordinates":[19.4,-99.1]},
  {"slug":"quechua","name":"Quechua","region":"Peru, Bolivia, Ecuador","speakers":8000000,"status":"Vulnerable","coordinates":[-13.5,-72.0]},
  {"slug":"guarani","name":"Guaraní","region":"Paraguay, Bolivia, Brazil","speakers":7000000,"status":"Safe (Official in Paraguay)","coordinates":[-25.3,-57.6]},
  {"slug":"maori","name":"Māori","region":"New Zealand","speakers":50000,"status":"Vulnerable","coordinates":[-40.9,174.9]},
  {"slug":"hawaiian","name":"Hawaiian","region":"Hawai‘i, USA","speakers":2000,"status":"Critically Endangered","coordinates":[21.3,-157.8]},
  {"slug":"yuchi","name":"Yuchi","region":"Oklahoma, USA","speakers":5,"status":"Critically Endangered","coordinates":[36.1,-95.9]},
  {"slug":"cherokee","name":"Cherokee","region":"USA (North Carolina, Oklahoma)","speakers":2200,"status":"Severely Endangered","coordinates":[35.5,-83.0]},
  {"slug":"basque","name":"Basque (Euskara)","region":"Spain, France (Basque Country)","speakers":750000,"status":"Vulnerable","coordinates":[43.0,-2.0]},
  {"slug":"friulian","name":"Friulian","region":"Italy (Friuli)","speakers":600000,"status":"Vulnerable","coordinates":[46.1,13.2]},
  {"slug":"sardinian","name":"Sardinian","region":"Italy (Sardinia)","speakers":1200000,"status":"Vulnerable","coordinates":[40.0,9.0]},
  {"slug":"occitan","name":"Occitan","region":"Southern France","speakers":2000000,"status":"Endangered","coordinates":[44.0,2.0]},
  {"slug":"achumawi","name":"Achumawi","region":"USA (California)","speakers":8,"status":"Severely Endangered","coordinates":[41.0,-121.0]},
  {"slug":"ahtna","name":"Ahtna","region":"USA (Alaska)","speakers":80,"status":"Vulnerable","coordinates":[62.7,-145.0]},
  {"slug":"blackfoot","name":"Blackfoot","region":"USA (Montana), Canada","speakers":5100,"status":"Vulnerable","coordinates":[48.0,-112.0]},
  {"slug":"selknam","name":"Selk'nam","region":"Chile (Tierra del Fuego)","speakers":1,"status":"Extinct","coordinates":[-54.0,-68.0]},
  {"slug":"ongota","name":"Ongota","region":"Ethiopia","speakers":5,"status":"Critically Endangered","coordinates":[5.9,36.9]},
  {"slug":"yaakunte","name":"Yaakunte","region":"Kenya","speakers":9,"status":"Critically Endangered","coordinates":[0.3,37.0]},
  {"slug":"belarusian","name":"Belarusian","region":"Belarus","speakers":4000000,"status":"Vulnerable","coordinates":[53.9,27.6]},
  {"slug":"low_saxon","name":"Low Saxon","region":"Germany, Netherlands","speakers":4800000,"status":"Vulnerable","coordinates":[52.0,7.0]},
  {"slug":"south_italian","name":"South Italian","region":"Italy","speakers":7500000,"status":"Vulnerable","coordinates":[40.5,14.5]},
  {"slug":"sicilian","name":"Sicilian","region":"Italy (Sicily)","speakers":5000000,"status":"Vulnerable","coordinates":[37.5,14.0]},
  {"slug":"lombard","name":"Lombard","region":"Italy (Lombardy)","speakers":3500000,"status":"Definitely Endangered","coordinates":[45.5,9.2]},
  {"slug":"gondi","name":"Gondi","region":"India","speakers":2713790,"status":"Vulnerable","coordinates":[19.0,80.0]},
  {"slug":"limburgian","name":"Limburgian","region":"Belgium, Netherlands, Germany","speakers":2600000,"status":"Vulnerable","coordinates":[50.9,5.9]},
  {"slug":"bajau","name":"Bajau","region":"Malaysia, Philippines, Indonesia","speakers":1000000,"status":"Vulnerable","coordinates":[4.0,118.0]},
  {"slug":"tswana","name":"Tswana","region":"Botswana, South Africa","speakers":5000000,"status":"Vulnerable","coordinates":[-24.5,25.9]},
  {"slug":"zulu","name":"Zulu","region":"South Africa","speakers":12000000,"status":"Vulnerable","coordinates":[-29.0,31.0]},
  {"slug":"xhosa","name":"Xhosa","region":"South Africa","speakers":19000000,"status":"Vulnerable","coordinates":[-31.0,28.0]},
  {"slug":"sotho","name":"Sotho","region":"South Africa, Lesotho","speakers":6000000,"status":"Vulnerable","coordinates":[-29.5,27.5]},
  {"slug":"swati","name":"Swati","region":"Eswatini, South Africa","speakers":2000000,"status":"Vulnerable","coordinates":[-26.5,31.5]},
  {"slug":"afrikaans","name":"Afrikaans","region":"South Africa, Namibia, Botswana","speakers":7000000,"status":"Vulnerable","coordinates":[-28.0,24.0]},
  {"slug":"english","name":"English","region":"Worldwide","speakers":1500000000,"status":"Safe (Official in many countries)","coordinates":[20.0,0.0]},
  {"slug":"french","name":"French","region":"Worldwide","speakers":300000000,"status":"Safe (Official in many countries)","coordinates":[46.0,2.0]},
  {"slug":"spanish","name":"Spanish","region":"Worldwide","speakers":460000000,"status":"Safe (Official in many countries)","coordinates":[40.0,-4.0]},
  {"slug":"arabic","name":"Arabic","region":"Worldwide","speakers":310000000,"status":"Safe (Official in many countries)","coordinates":[24.0,45.0]},
  {"slug":"portuguese","name":"Portuguese","region":"Worldwide","speakers":220000000,"status":"Safe (Official in many countries)","coordinates":[-10.0,-50.0]},
  {"slug":"russian","name":"Russian","region":"Russia, Central Asia","speakers":150000000,"status":"Safe (Official in many countries)","coordinates":[60.0,90.0]},
  {"slug":"chinese","name":"Chinese","region":"China, Taiwan, Singapore","speakers":1300000000,"status":"Safe (Official in many countries)","coordinates":[35.0,105.0]},
  {"slug":"hindi","name":"Hindi","region":"India","speakers":600000000,"status":"Safe (Official in India)","coordinates":[25.0,77.0]},
  {"slug":"bengali","name":"Bengali","region":"Bangladesh, India","speakers":230000000,"status":"Safe (Official in Bangladesh and India)","coordinates":[23.0,90.0]},
  {"slug":"urdu","name":"Urdu","region":"Pakistan, India","speakers":170000000,"status":"Safe (Official in Pakistan and India)","coordinates":[30.0,70.0]},
  {"slug":"japanese","name":"Japanese","region":"Japan","speakers":125000000,"status":"Safe (Official in Japan)","coordinates":[36.0,138.0]},
  {"slug":"taushiro","name":"Taushiro","region":"Peru","speakers":1,"status":"Critically Endangered","coordinates":[-5.2,-75.7]},
  {"slug":"waorani","name":"Waorani","region":"Ecuador","speakers":2000,"status":"Severely Endangered","coordinates":[-1.0,-77.0]},
  {"slug":"kaixana","name":"Kaixana","region":"Brazil (Amazonas)","speakers":1,"status":"Critically Endangered","coordinates":[-2.3,-66.9]},
  {"slug":"chamicuro","name":"Chamicuro","region":"Peru","speakers":8,"status":"Critically Endangered","coordinates":[-6.4,-75.8]},
  {"slug":"mohegan","name":"Mohegan-Pequot","region":"USA (Connecticut)","speakers":10,"status":"Revival","coordinates":[41.6,-72.0]},
  {"slug":"wintu","name":"Wintu","region":"USA (California)","speakers":5,"status":"Critically Endangered","coordinates":[40.6,-122.4]},
  {"slug":"shinnecock","name":"Shinnecock","region":"USA (New York)","speakers":10,"status":"Revival","coordinates":[40.9,-72.4]},
  {"slug":"atikamekw","name":"Atikamekw","region":"Canada (Quebec)","speakers":7000,"status":"Vulnerable","coordinates":[47.7,-73.0]},
  {"slug":"gwichin","name":"Gwich’in","region":"Canada, USA (Alaska)","speakers":300,"status":"Severely Endangered","coordinates":[67.0,-135.0]},
  {"slug":"haida","name":"Haida","region":"Canada (British Columbia)","speakers":15,"status":"Critically Endangered","coordinates":[53.0,-132.0]},
  {"slug":"mi'kmaq","name":"Mi'kmaq","region":"Canada (Nova Scotia)","speakers":8000,"status":"Endangered","coordinates":[45.0,-63.0]},
  {"slug":"inuktitut","name":"Inuktitut","region":"Canada (Nunavut)","speakers":39000,"status":"Vulnerable","coordinates":[65.0,-95.0]},
  {"slug":"kawesqar","name":"Kawésqar","region":"Chile (Patagonia)","speakers":10,"status":"Critically Endangered","coordinates":[-49.2,-74.3]},
  {"slug":"yagan","name":"Yagán","region":"Chile (Tierra del Fuego)","speakers":1,"status":"Critically Endangered","coordinates":[-55.0,-68.7]},
  {"slug":"mapudungun","name":"Mapudungun","region":"Chile, Argentina","speakers":260000,"status":"Vulnerable","coordinates":[-39.0,-72.0]},
  {"slug":"ayoreo","name":"Ayoreo","region":"Bolivia, Paraguay","speakers":4000,"status":"Endangered","coordinates":[-18.5,-60.0]},
  {"slug":"bororo","name":"Bororo","region":"Brazil","speakers":1200,"status":"Endangered","coordinates":[-16.0,-56.0]},
  {"slug":"karaja","name":"Karajá","region":"Brazil (Tocantins)","speakers":1400,"status":"Endangered","coordinates":[-10.0,-50.0]},
  {"slug":"xavante","name":"Xavante","region":"Brazil (Mato Grosso)","speakers":20000,"status":"Vulnerable","coordinates":[-15.0,-52.0]},
  {"slug":"efik","name":"Efik","region":"Nigeria","speakers":400000,"status":"Vulnerable","coordinates":[4.9,8.3]},
  {"slug":"igala","name":"Igala","region":"Nigeria","speakers":1800000,"status":"Vulnerable","coordinates":[7.3,7.1]},
  {"slug":"bamileke","name":"Bamileke","region":"Cameroon","speakers":1000000,"status":"Vulnerable","coordinates":[5.5,10.0]},
  {"slug":"malgana","name":"Malgana","region":"Australia (Western Australia)","speakers":3,"status":"Critically Endangered","coordinates":[-26.5,114.1]},
  {"slug":"wardaman","name":"Wardaman","region":"Australia (Northern Territory)","speakers":2,"status":"Critically Endangered","coordinates":[-15.6,131.0]},
  {"slug":"yorta_yorta","name":"Yorta Yorta","region":"Australia (Victoria)","speakers":20,"status":"Revival","coordinates":[-36.0,145.0]},
  {"slug":"palawa_kani","name":"Palawa kani","region":"Australia (Tasmania)","speakers":100,"status":"Revival","coordinates":[-42.0,147.0]},
  {"slug":"manchu","name":"Manchu","region":"China (Heilongjiang)","speakers":20,"status":"Critically Endangered","coordinates":[47.0,127.0]},
  {"slug":"dongxiang","name":"Dongxiang","region":"China (Gansu)","speakers":200000,"status":"Endangered","coordinates":[35.5,103.0]},
  {"slug":"nuosu","name":"Nuosu (Yi)","region":"China (Sichuan, Yunnan)","speakers":2000000,"status":"Vulnerable","coordinates":[27.5,102.5]},
  {"slug":"hmong","name":"Hmong","region":"China, Laos, Vietnam","speakers":4000000,"status":"Vulnerable","coordinates":[21.0,102.0]}
]